timestamp,roll,pitch,yaw,vx,vy,vz,rc1,rc2,rc3,rc4,x,y,z
1454924524.701035,-0.0005702609196305275,0.010866105556488037,-0.028059130534529686,-0.01,0.02,0.0,1500,1500,1000,1500,0,0,0
1454924524.721038,-0.0005702609196305275,0.010866105556488037,-0.028059130534529686,-0.01,0.02,0.0,1500,1500,1000,1500,0,0,0
1454924524.741044,-0.0005702609196305275,0.010866105556488037,-0.028059130534529686,-0.01,0.02,0.0,1500,1500,1000,1500,0,0,0
1454924524.761049,-0.0005702609196305275,0.010866105556488037,-0.028059130534529686,-0.01,0.02,0.0,1500,1500,1000,1500,0,0,0
1454924524.781057,-0.0005702609196305275,0.010866105556488037,-0.028059130534529686,-0.01,0.02,0.0,1500,1500,1000,1500,0,0,0
1454924524.801062,-0.0005702609196305275,0.010866105556488037,-0.028059130534529686,-0.01,0.02,0.0,1500,1500,1000,1500,0,0,0
1454924524.82107,-0.0005702609196305275,0.010866105556488037,-0.028059130534529686,-0.01,0.02,0.0,1500,1500,1000,1500,0,0,0
1454924524.841075,-0.0005702609196305275,0.010866105556488037,-0.028059130534529686,-0.01,0.02,0.0,1500,1500,1000,1500,0,0,0
1454924524.861079,-0.0005702609196305275,0.010866105556488037,-0.028059130534529686,-0.01,0.02,0.0,1500,1500,1000,1500,0,0,0
1454924524.881087,-0.0005702609196305275,0.010866105556488037,-0.028059130534529686,-0.01,0.02,0.0,1500,1500,1000,1500,0,0,0
1454924524.901094,-0.0005702609196305275,0.010866105556488037,-0.028059130534529686,-0.01,0.02,0.0,1500,1500,1000,1500,0,0,0
1454924524.921099,-0.0005702609196305275,0.010866105556488037,-0.028059130534529686,-0.01,0.02,0.0,1500,1500,1000,1500,0,0,0
1454924524.941247,-0.00067046721233055,0.010870260186493397,-0.027223076671361923,-0.02,0.02,0.0,1500,1500,1000,1500,0,0,0
1454924524.961253,-0.00067046721233055,0.010870260186493397,-0.027223076671361923,-0.02,0.02,0.0,1500,1500,1000,1500,0,0,0
1454924524.981259,-0.00067046721233055,0.010870260186493397,-0.027223076671361923,-0.02,0.02,0.0,1500,1500,1000,1500,0,0,0
1454924525.001264,-0.00067046721233055,0.010870260186493397,-0.027223076671361923,-0.02,0.02,0.0,1500,1500,1000,1500,0,0,0
1454924525.02127,-0.00067046721233055,0.010870260186493397,-0.027223076671361923,-0.02,0.02,0.0,1500,1500,1000,1500,0,0,0
1454924525.041274,-0.00067046721233055,0.010870260186493397,-0.027223076671361923,-0.02,0.02,0.0,1500,1500,1000,1500,0,0,0
1454924525.06128,-0.00067046721233055,0.010870260186493397,-0.027223076671361923,-0.02,0.02,0.0,1500,1500,1000,1500,0,0,0
1454924525.081286,-0.00067046721233055,0.010870260186493397,-0.027223076671361923,-0.02,0.02,0.0,1500,1500,1000,1500,0,0,0
1454924525.101293,-0.0008120427373796701,0.010580661706626415,-0.026409976184368134,-0.02,0.02,0.0,1500,1500,1000,1500,0,0,0
1454924525.121297,-0.0008120427373796701,0.010580661706626415,-0.026409976184368134,-0.02,0.02,0.0,1500,1500,1000,1500,0,0,0
1454924525.141305,-0.0008120427373796701,0.010580661706626415,-0.026409976184368134,-0.02,0.02,0.0,1500,1500,1000,1500,0,0,0
1454924525.161311,-0.0008120427373796701,0.010580661706626415,-0.026409976184368134,-0.02,0.02,0.0,1500,1500,1000,1500,0,0,0
1454924525.181317,-0.0008120427373796701,0.010580661706626415,-0.026409976184368134,-0.02,0.02,0.0,1500,1500,1000,1500,0,0,0
1454924525.201323,-0.0008120427373796701,0.010580661706626415,-0.026409976184368134,-0.02,0.02,0.0,1500,1500,1000,1500,0,0,0
1454924525.221328,-0.0008120427373796701,0.010580661706626415,-0.026409976184368134,-0.02,0.02,0.0,1500,1500,1000,1500,0,0,0
1454924525.241333,-0.0008120427373796701,0.010580661706626415,-0.026409976184368134,-0.02,0.02,0.0,1500,1500,1000,1500,0,0,0
1454924525.261338,-0.0008120427373796701,0.010580661706626415,-0.026409976184368134,-0.02,0.02,0.0,1500,1500,1000,1500,0,0,0
1454924525.281343,-0.0008120427373796701,0.010580661706626415,-0.026409976184368134,-0.02,0.02,0.0,1500,1500,1000,1500,0,0,0
1454924525.301351,-0.0008120427373796701,0.010580661706626415,-0.026409976184368134,-0.02,0.02,0.0,1500,1500,1000,1500,0,0,0
1454924525.321357,-0.0008120427373796701,0.010580661706626415,-0.026409976184368134,-0.02,0.02,0.0,1500,1500,1000,1500,0,0,0
1454924525.341361,-0.0008120427373796701,0.010580661706626415,-0.026409976184368134,-0.02,0.02,0.0,1500,1500,1000,1500,0,0,0
1454924525.361368,-0.0008120427373796701,0.010580661706626415,-0.026409976184368134,-0.02,0.02,0.0,1500,1500,1000,1500,0,0,0
1454924525.381373,-0.0008120427373796701,0.010580661706626415,-0.026409976184368134,-0.02,0.02,0.0,1500,1500,1000,1500,0,0,0
1454924525.401431,-0.0009851438226178288,0.01042861957103014,-0.02582293003797531,-0.03,0.02,0.0,1500,1500,1000,1500,0,0,0
1454924525.421434,-0.0009851438226178288,0.01042861957103014,-0.02582293003797531,-0.03,0.02,0.0,1500,1500,1000,1500,0,0,0
1454924525.441442,-0.0009851438226178288,0.01042861957103014,-0.02582293003797531,-0.03,0.02,0.0,1500,1500,1000,1500,0,0,0
1454924525.461447,-0.0009851438226178288,0.01042861957103014,-0.02582293003797531,-0.03,0.02,0.0,1500,1500,1000,1500,0,0,0
1454924525.481455,-0.0009851438226178288,0.01042861957103014,-0.02582293003797531,-0.03,0.02,0.0,1500,1500,1000,1500,0,0,0
1454924525.501461,-0.0009851438226178288,0.01042861957103014,-0.02582293003797531,-0.03,0.02,0.0,1500,1500,1000,1500,0,0,0
1454924525.521474,-0.0009851438226178288,0.01042861957103014,-0.02582293003797531,-0.03,0.02,0.0,1500,1500,1000,1500,0,0,0
1454924525.541487,-0.0009851438226178288,0.01042861957103014,-0.02582293003797531,-0.03,0.02,0.0,1500,1500,1000,1500,0,0,0
1454924525.561493,-0.0009851438226178288,0.01042861957103014,-0.02582293003797531,-0.03,0.02,0.0,1500,1500,1000,1500,0,0,0
1454924525.581496,-0.0009851438226178288,0.01042861957103014,-0.02582293003797531,-0.03,0.02,0.0,1500,1500,1000,1500,0,0,0
1454924525.601502,-0.0009873530361801386,0.010534625500440598,-0.02569512091577053,-0.03,0.02,0.0,1500,1500,1000,1500,0,0,0
1454924525.621508,-0.0009873530361801386,0.010534625500440598,-0.02569512091577053,-0.03,0.02,0.0,1500,1500,1000,1500,0,0,0
1454924525.641637,-0.0009873530361801386,0.010534625500440598,-0.02569512091577053,-0.03,0.02,0.0,1500,1500,1000,1500,0,0,0
1454924525.661645,-0.0009873530361801386,0.010534625500440598,-0.02569512091577053,-0.03,0.02,0.0,1500,1500,1000,1500,0,0,0
1454924525.681653,-0.0009873530361801386,0.010534625500440598,-0.02569512091577053,-0.03,0.02,0.0,1500,1500,1000,1500,0,0,0
1454924525.701657,-0.0009873530361801386,0.010534625500440598,-0.02569512091577053,-0.03,0.02,0.0,1500,1500,1000,1500,0,0,0
1454924525.721663,-0.0009873530361801386,0.010534625500440598,-0.02569512091577053,-0.03,0.02,0.0,1500,1500,1000,1500,0,0,0
1454924525.741669,-0.0009873530361801386,0.010534625500440598,-0.02569512091577053,-0.03,0.02,0.0,1500,1500,1000,1500,0,0,0
1454924525.761675,-0.0009873530361801386,0.010534625500440598,-0.02569512091577053,-0.03,0.02,0.0,1500,1500,1000,1500,0,0,0
1454924525.781681,-0.0009873530361801386,0.010534625500440598,-0.02569512091577053,-0.03,0.02,0.0,1500,1500,1000,1500,0,0,0
1454924525.801689,-0.0009873530361801386,0.010534625500440598,-0.02569512091577053,-0.03,0.02,0.0,1500,1500,1000,1500,0,0,0
1454924525.821695,-0.0009873530361801386,0.010534625500440598,-0.02569512091577053,-0.03,0.02,0.0,1500,1500,1000,1500,0,0,0
1454924525.841697,-0.0009873530361801386,0.010534625500440598,-0.02569512091577053,-0.03,0.02,0.0,1500,1500,1000,1500,0,0,0
1454924525.861701,-0.0009873530361801386,0.010534625500440598,-0.02569512091577053,-0.03,0.02,0.0,1500,1500,1000,1500,0,0,0
1454924525.881704,-0.0009873530361801386,0.010534625500440598,-0.02569512091577053,-0.03,0.02,0.0,1500,1500,1000,1500,0,0,0
1454924525.901728,-0.0009873530361801386,0.010534625500440598,-0.02569512091577053,-0.03,0.02,0.0,1500,1500,1000,1500,0,0,0
1454924525.921732,-0.0009873530361801386,0.010534625500440598,-0.02569512091577053,-0.03,0.02,0.0,1500,1500,1000,1500,0,0,0
1454924525.941736,-0.0011141053400933743,0.010830081067979336,-0.025728249922394753,-0.03,0.02,0.0,1500,1500,1000,1500,0,0,0
1454924525.961741,-0.0011141053400933743,0.010830081067979336,-0.025728249922394753,-0.03,0.02,0.0,1500,1500,1000,1500,0,0,0
1454924525.981747,-0.0011141053400933743,0.010830081067979336,-0.025728249922394753,-0.03,0.02,0.0,1500,1500,1000,1500,0,0,0
1454924526.001751,-0.0011141053400933743,0.010830081067979336,-0.025728249922394753,-0.03,0.02,0.0,1500,1500,1000,1500,0,0,0
1454924526.021758,-0.0011141053400933743,0.010830081067979336,-0.025728249922394753,-0.03,0.02,0.0,1500,1500,1000,1500,0,0,0
1454924526.041763,-0.0011141053400933743,0.010830081067979336,-0.025728249922394753,-0.03,0.02,0.0,1500,1500,1000,1500,0,0,0
1454924526.061769,-0.0011141053400933743,0.010830081067979336,-0.025728249922394753,-0.03,0.02,0.0,1500,1500,1000,1500,0,0,0
1454924526.081775,-0.0011141053400933743,0.010830081067979336,-0.025728249922394753,-0.03,0.02,0.0,1500,1500,1000,1500,0,0,0
1454924526.101906,-0.0011141053400933743,0.010830081067979336,-0.025728249922394753,-0.03,0.02,0.0,1500,1500,1000,1500,0,0,0
1454924526.121916,-0.00113745650742203,0.011198703199625015,-0.02599654719233513,-0.04,0.03,0.0,1500,1500,1000,1500,0,0,0
1454924526.141922,-0.00113745650742203,0.011198703199625015,-0.02599654719233513,-0.04,0.03,0.0,1500,1500,1000,1500,0,0,0
1454924526.161927,-0.00113745650742203,0.011198703199625015,-0.02599654719233513,-0.04,0.03,0.0,1500,1500,1000,1500,0,0,0
1454924526.181933,-0.00113745650742203,0.011198703199625015,-0.02599654719233513,-0.04,0.03,0.0,1500,1500,1000,1500,0,0,0
1454924526.201938,-0.00113745650742203,0.011198703199625015,-0.02599654719233513,-0.04,0.03,0.0,1500,1500,1000,1500,0,0,0
1454924526.221946,-0.00113745650742203,0.011198703199625015,-0.02599654719233513,-0.04,0.03,0.0,1500,1500,1000,1500,0,0,0
1454924526.24195,-0.00113745650742203,0.011198703199625015,-0.02599654719233513,-0.04,0.03,0.0,1500,1500,1000,1500,0,0,0
1454924526.261957,-0.00113745650742203,0.011198703199625015,-0.02599654719233513,-0.04,0.03,0.0,1500,1500,1000,1500,0,0,0
1454924526.281962,-0.00113745650742203,0.011198703199625015,-0.02599654719233513,-0.04,0.03,0.0,1500,1500,1000,1500,0,0,0
1454924526.301966,-0.0011427311692386866,0.012031369842588902,-0.02599945291876793,-0.04,0.03,0.0,1500,1500,1000,1500,0,0,0
1454924526.321972,-0.0011427311692386866,0.012031369842588902,-0.02599945291876793,-0.04,0.03,0.0,1500,1500,1000,1500,0,0,0
1454924526.341976,-0.0011427311692386866,0.012031369842588902,-0.02599945291876793,-0.04,0.03,0.0,1500,1500,1000,1500,0,0,0
1454924526.361979,-0.0011427311692386866,0.012031369842588902,-0.02599945291876793,-0.04,0.03,0.0,1500,1500,1000,1500,0,0,0
1454924526.381982,-0.0011427311692386866,0.012031369842588902,-0.02599945291876793,-0.04,0.03,0.0,1500,1500,1000,1500,0,0,0
1454924526.401988,-0.0011427311692386866,0.012031369842588902,-0.02599945291876793,-0.04,0.03,0.0,1500,1500,1000,1500,0,0,0
1454924526.421994,-0.0011427311692386866,0.012031369842588902,-0.02599945291876793,-0.04,0.03,0.0,1500,1500,1000,1500,0,0,0
1454924526.442001,-0.0011427311692386866,0.012031369842588902,-0.02599945291876793,-0.04,0.03,0.0,1500,1500,1000,1500,0,0,0
1454924526.462008,-0.0011427311692386866,0.012031369842588902,-0.02599945291876793,-0.04,0.03,0.0,1500,1500,1000,1500,0,0,0
1454924526.482015,-0.0011427311692386866,0.012031369842588902,-0.02599945291876793,-0.04,0.03,0.0,1500,1500,1000,1500,0,0,0
1454924526.50202,-0.0011427311692386866,0.012031369842588902,-0.02599945291876793,-0.04,0.03,0.0,1500,1500,1000,1500,0,0,0
1454924526.522023,-0.0011427311692386866,0.012031369842588902,-0.02599945291876793,-0.04,0.03,0.0,1500,1500,1000,1500,0,0,0
1454924526.542029,-0.0011427311692386866,0.012031369842588902,-0.02599945291876793,-0.04,0.03,0.0,1500,1500,1000,1500,0,0,0
1454924526.562037,-0.0011427311692386866,0.012031369842588902,-0.02599945291876793,-0.04,0.03,0.0,1500,1500,1000,1500,0,0,0
1454924526.582042,-0.0011427311692386866,0.012031369842588902,-0.02599945291876793,-0.04,0.03,0.0,1500,1500,1000,1500,0,0,0
1454924526.602085,-0.0011073700152337551,0.012469528242945671,-0.025742201134562492,-0.04,0.03,0.0,1500,1500,1000,1500,0,0,0
1454924526.622091,-0.0011073700152337551,0.012469528242945671,-0.025742201134562492,-0.04,0.03,0.0,1500,1500,1000,1500,0,0,0
1454924526.642098,-0.0011073700152337551,0.012469528242945671,-0.025742201134562492,-0.04,0.03,0.0,1500,1500,1000,1500,0,0,0
1454924526.662104,-0.0011073700152337551,0.012469528242945671,-0.025742201134562492,-0.04,0.03,0.0,1500,1500,1000,1500,0,0,0
1454924526.682404,-0.0011073700152337551,0.012469528242945671,-0.025742201134562492,-0.04,0.03,0.0,1500,1500,1000,1500,0,0,0
1454924526.70241,-0.0011073700152337551,0.012469528242945671,-0.025742201134562492,-0.04,0.03,0.0,1500,1500,1000,1500,0,0,0
1454924526.722416,-0.0011073700152337551,0.012469528242945671,-0.025742201134562492,-0.04,0.03,0.0,1500,1500,1000,1500,0,0,0
1454924526.742422,-0.0011073700152337551,0.012469528242945671,-0.025742201134562492,-0.04,0.03,0.0,1500,1500,1000,1500,0,0,0
1454924526.76243,-0.0011073700152337551,0.012469528242945671,-0.025742201134562492,-0.04,0.03,0.0,1500,1500,1000,1500,0,0,0
1454924526.782434,-0.0011843957472592592,0.012335960753262043,-0.02538292668759823,-0.04,0.03,0.0,1500,1500,1000,1500,0,0,0
1454924526.802441,-0.0011843957472592592,0.012335960753262043,-0.02538292668759823,-0.04,0.03,0.0,1500,1500,1000,1500,0,0,0
1454924526.822445,-0.0011843957472592592,0.012335960753262043,-0.02538292668759823,-0.04,0.03,0.0,1500,1500,1000,1500,0,0,0
1454924526.84245,-0.0011843957472592592,0.012335960753262043,-0.02538292668759823,-0.04,0.03,0.0,1500,1500,1000,1500,0,0,0
1454924526.862458,-0.0011843957472592592,0.012335960753262043,-0.02538292668759823,-0.04,0.03,0.0,1500,1500,1000,1500,0,0,0
1454924526.882461,-0.0011843957472592592,0.012335960753262043,-0.02538292668759823,-0.04,0.03,0.0,1500,1500,1000,1500,0,0,0
1454924526.902465,-0.0011843957472592592,0.012335960753262043,-0.02538292668759823,-0.04,0.03,0.0,1500,1500,1000,1500,0,0,0
1454924526.922471,-0.0011843957472592592,0.012335960753262043,-0.02538292668759823,-0.04,0.03,0.0,1500,1500,1000,1500,0,0,0
1454924526.942474,-0.0011843957472592592,0.012335960753262043,-0.02538292668759823,-0.04,0.03,0.0,1500,1500,1000,1500,0,0,0
1454924526.962478,-0.0011843957472592592,0.012335960753262043,-0.02538292668759823,-0.04,0.03,0.0,1500,1500,1000,1500,0,0,0
1454924526.982487,-0.0011843957472592592,0.012335960753262043,-0.02538292668759823,-0.04,0.03,0.0,1500,1500,1000,1500,0,0,0
1454924527.002502,-0.0011843957472592592,0.012335960753262043,-0.02538292668759823,-0.04,0.03,0.0,1500,1500,1000,1500,0,0,0
1454924527.022509,-0.0011843957472592592,0.012335960753262043,-0.02538292668759823,-0.04,0.03,0.0,1500,1500,1000,1500,0,0,0
1454924527.042515,-0.0011843957472592592,0.012335960753262043,-0.02538292668759823,-0.04,0.03,0.0,1500,1500,1000,1500,0,0,0
1454924527.062519,-0.0011843957472592592,0.012335960753262043,-0.02538292668759823,-0.04,0.03,0.0,1500,1500,1000,1500,0,0,0
1454924527.082521,-0.001255529117770493,0.012462045066058636,-0.025104409083724022,-0.05,0.03,0.0,1500,1500,1000,1500,0,0,0
1454924527.102527,-0.001255529117770493,0.012462045066058636,-0.025104409083724022,-0.05,0.03,0.0,1500,1500,1000,1500,0,0,0
1454924527.122533,-0.001255529117770493,0.012462045066058636,-0.025104409083724022,-0.05,0.03,0.0,1500,1500,1000,1500,0,0,0
1454924527.142544,-0.001255529117770493,0.012462045066058636,-0.025104409083724022,-0.05,0.03,0.0,1500,1500,1000,1500,0,0,0
1454924527.16255,-0.001255529117770493,0.012462045066058636,-0.025104409083724022,-0.05,0.03,0.0,1500,1500,1000,1500,0,0,0
1454924527.182556,-0.001255529117770493,0.012462045066058636,-0.025104409083724022,-0.05,0.03,0.0,1500,1500,1000,1500,0,0,0
1454924527.202559,-0.001255529117770493,0.012462045066058636,-0.025104409083724022,-0.05,0.03,0.0,1500,1500,1000,1500,0,0,0
1454924527.222566,-0.001255529117770493,0.012462045066058636,-0.025104409083724022,-0.05,0.03,0.0,1500,1500,1000,1500,0,0,0
1454924527.242607,-0.001255529117770493,0.012462045066058636,-0.025104409083724022,-0.05,0.03,0.0,1500,1500,1000,1500,0,0,0
1454924527.262615,-0.0013325228355824947,0.012642298825085163,-0.02501867711544037,-0.05,0.03,0.0,1500,1500,1000,1500,0,0,0
1454924527.282621,-0.0013325228355824947,0.012642298825085163,-0.02501867711544037,-0.05,0.03,0.0,1500,1500,1000,1500,0,0,0
1454924527.302772,-0.0013325228355824947,0.012642298825085163,-0.02501867711544037,-0.05,0.03,0.0,1500,1500,1000,1500,0,0,0
1454924527.322788,-0.0013325228355824947,0.012642298825085163,-0.02501867711544037,-0.05,0.03,0.0,1500,1500,1000,1500,0,0,0
1454924527.342797,-0.0013325228355824947,0.012642298825085163,-0.02501867711544037,-0.05,0.03,0.0,1500,1500,1000,1500,0,0,0
1454924527.362801,-0.0013325228355824947,0.012642298825085163,-0.02501867711544037,-0.05,0.03,0.0,1500,1500,1000,1500,0,0,0
1454924527.382808,-0.0013325228355824947,0.012642298825085163,-0.02501867711544037,-0.05,0.03,0.0,1500,1500,1000,1500,0,0,0
1454924527.402814,-0.0013325228355824947,0.012642298825085163,-0.02501867711544037,-0.05,0.03,0.0,1500,1500,1000,1500,0,0,0
1454924527.422821,-0.0013325228355824947,0.012642298825085163,-0.02501867711544037,-0.05,0.03,0.0,1500,1500,1000,1500,0,0,0
1454924527.442827,-0.0013325228355824947,0.012642298825085163,-0.02501867711544037,-0.05,0.03,0.0,1500,1500,1000,1500,0,0,0
1454924527.462835,-0.0013325228355824947,0.012642298825085163,-0.02501867711544037,-0.05,0.03,0.0,1500,1500,1000,1500,0,0,0
1454924527.482838,-0.001397518441081047,0.01267248298972845,-0.02497861161828041,-0.05,0.04,0.0,1500,1500,1000,1500,0,0,0
1454924527.502844,-0.001397518441081047,0.01267248298972845,-0.02497861161828041,-0.05,0.04,0.0,1500,1500,1000,1500,0,0,0
1454924527.52285,-0.001397518441081047,0.01267248298972845,-0.02497861161828041,-0.05,0.04,0.0,1500,1500,1000,1500,0,0,0
1454924527.542858,-0.001397518441081047,0.01267248298972845,-0.02497861161828041,-0.05,0.04,0.0,1500,1500,1000,1500,0,0,0
1454924527.562863,-0.001397518441081047,0.01267248298972845,-0.02497861161828041,-0.05,0.04,0.0,1500,1500,1000,1500,0,0,0
1454924527.582869,-0.001397518441081047,0.01267248298972845,-0.02497861161828041,-0.05,0.04,0.0,1500,1500,1000,1500,0,0,0
1454924527.602874,-0.001397518441081047,0.01267248298972845,-0.02497861161828041,-0.05,0.04,0.0,1500,1500,1000,1500,0,0,0
1454924527.622881,-0.001397518441081047,0.01267248298972845,-0.02497861161828041,-0.05,0.04,0.0,1500,1500,1000,1500,0,0,0
1454924527.642888,-0.001397518441081047,0.01267248298972845,-0.02497861161828041,-0.05,0.04,0.0,1500,1500,1000,1500,0,0,0
1454924527.662895,-0.001397518441081047,0.01267248298972845,-0.02497861161828041,-0.05,0.04,0.0,1500,1500,1000,1500,0,0,0
1454924527.68291,-0.001397518441081047,0.01267248298972845,-0.02497861161828041,-0.05,0.04,0.0,1500,1500,1000,1500,0,0,0
1454924527.702914,-0.001397518441081047,0.01267248298972845,-0.02497861161828041,-0.05,0.04,0.0,1500,1500,1000,1500,0,0,0
1454924527.72292,-0.001397518441081047,0.01267248298972845,-0.02497861161828041,-0.05,0.04,0.0,1500,1500,1000,1500,0,0,0
1454924527.742927,-0.001397518441081047,0.01267248298972845,-0.02497861161828041,-0.05,0.04,0.0,1500,1500,1000,1500,0,0,0
1454924527.762935,-0.001397518441081047,0.01267248298972845,-0.02497861161828041,-0.05,0.04,0.0,1500,1500,1000,1500,0,0,0
1454924527.782991,-0.0014603579184040427,0.012514355592429638,-0.024905692785978317,-0.05,0.04,0.0,1500,1500,1000,1500,0,0,0
1454924527.802996,-0.0014603579184040427,0.012514355592429638,-0.024905692785978317,-0.05,0.04,0.0,1500,1500,1000,1500,0,0,0
1454924527.823002,-0.0014603579184040427,0.012514355592429638,-0.024905692785978317,-0.05,0.04,0.0,1500,1500,1000,1500,0,0,0
1454924527.843007,-0.0014603579184040427,0.012514355592429638,-0.024905692785978317,-0.05,0.04,0.0,1500,1500,1000,1500,0,0,0
1454924527.863013,-0.0014603579184040427,0.012514355592429638,-0.024905692785978317,-0.05,0.04,0.0,1500,1500,1000,1500,0,0,0
1454924527.883019,-0.0014603579184040427,0.012514355592429638,-0.024905692785978317,-0.05,0.04,0.0,1500,1500,1000,1500,0,0,0
1454924527.903025,-0.0014603579184040427,0.012514355592429638,-0.024905692785978317,-0.05,0.04,0.0,1500,1500,1000,1500,0,0,0
1454924527.923031,-0.0014603579184040427,0.012514355592429638,-0.024905692785978317,-0.05,0.04,0.0,1500,1500,1000,1500,0,0,0
1454924527.943037,-0.0014603579184040427,0.012514355592429638,-0.024905692785978317,-0.05,0.04,0.0,1500,1500,1000,1500,0,0,0
1454924527.963041,-0.0014603579184040427,0.012514355592429638,-0.024905692785978317,-0.05,0.04,0.0,1500,1500,1000,1500,0,0,0
1454924527.983046,-0.0014657757710665464,0.012483010068535805,-0.025004759430885315,-0.05,0.04,0.0,1500,1500,1000,1500,0,0,0
1454924528.003052,-0.0014657757710665464,0.012483010068535805,-0.025004759430885315,-0.05,0.04,0.0,1500,1500,1000,1500,0,0,0
1454924528.023059,-0.0014657757710665464,0.012483010068535805,-0.025004759430885315,-0.05,0.04,0.0,1500,1500,1000,1500,0,0,0
1454924528.043063,-0.0014657757710665464,0.012483010068535805,-0.025004759430885315,-0.05,0.04,0.0,1500,1500,1000,1500,0,0,0
1454924528.06307,-0.0014657757710665464,0.012483010068535805,-0.025004759430885315,-0.05,0.04,0.0,1500,1500,1000,1500,0,0,0
1454924528.083076,-0.0014657757710665464,0.012483010068535805,-0.025004759430885315,-0.05,0.04,0.0,1500,1500,1000,1500,0,0,0
1454924528.103089,-0.0014657757710665464,0.012483010068535805,-0.025004759430885315,-0.05,0.04,0.0,1500,1500,1000,1500,0,0,0
1454924528.123096,-0.0014657757710665464,0.012483010068535805,-0.025004759430885315,-0.05,0.04,0.0,1500,1500,1000,1500,0,0,0
1454924528.143104,-0.0014657757710665464,0.012483010068535805,-0.025004759430885315,-0.05,0.04,0.0,1500,1500,1000,1500,0,0,0
1454924528.16311,-0.0014657757710665464,0.012483010068535805,-0.025004759430885315,-0.05,0.04,0.0,1500,1500,1000,1500,0,0,0
1454924528.183117,-0.0014657757710665464,0.012483010068535805,-0.025004759430885315,-0.05,0.04,0.0,1500,1500,1000,1500,0,0,0
1454924528.203123,-0.0014657757710665464,0.012483010068535805,-0.025004759430885315,-0.05,0.04,0.0,1500,1500,1000,1500,0,0,0
1454924528.22313,-0.0014657757710665464,0.012483010068535805,-0.025004759430885315,-0.05,0.04,0.0,1500,1500,1000,1500,0,0,0
1454924528.243136,-0.0014657757710665464,0.012483010068535805,-0.025004759430885315,-0.05,0.04,0.0,1500,1500,1000,1500,0,0,0
1454924528.26314,-0.0014657757710665464,0.012483010068535805,-0.025004759430885315,-0.05,0.04,0.0,1500,1500,1000,1500,0,0,0
1454924528.283144,-0.0011127132456749678,0.01232073362916708,-0.02505907416343689,-0.05,0.04,0.0,1500,1500,1000,1500,0,0,0
1454924528.30315,-0.0011127132456749678,0.01232073362916708,-0.02505907416343689,-0.05,0.04,0.0,1500,1500,1000,1500,0,0,0
1454924528.323155,-0.0011127132456749678,0.01232073362916708,-0.02505907416343689,-0.05,0.04,0.0,1500,1500,1000,1500,0,0,0
1454924528.343159,-0.0011127132456749678,0.01232073362916708,-0.02505907416343689,-0.05,0.04,0.0,1500,1500,1000,1500,0,0,0
1454924528.363165,-0.0011127132456749678,0.01232073362916708,-0.02505907416343689,-0.05,0.04,0.0,1500,1500,1000,1500,0,0,0
1454924528.383171,-0.0011127132456749678,0.01232073362916708,-0.02505907416343689,-0.05,0.04,0.0,1500,1500,1000,1500,0,0,0
1454924528.403179,-0.0011127132456749678,0.01232073362916708,-0.02505907416343689,-0.05,0.04,0.0,1500,1500,1000,1500,0,0,0
1454924528.423184,-0.0011127132456749678,0.01232073362916708,-0.02505907416343689,-0.05,0.04,0.0,1500,1500,1000,1500,0,0,0
1454924528.443191,-0.0011127132456749678,0.01232073362916708,-0.02505907416343689,-0.05,0.04,0.0,1500,1500,1000,1500,0,0,0
1454924528.463196,-0.0011127132456749678,0.01232073362916708,-0.02505907416343689,-0.05,0.04,0.0,1500,1500,1000,1500,0,0,0
1454924528.483202,-0.0011127132456749678,0.01232073362916708,-0.02505907416343689,-0.05,0.04,0.0,1500,1500,1000,1500,0,0,0
1454924528.503207,-0.0011127132456749678,0.01232073362916708,-0.02505907416343689,-0.05,0.04,0.0,1500,1500,1000,1500,0,0,0
1454924528.523215,-0.0005866196006536484,0.012063654139637947,-0.02524559758603573,-0.06,0.04,0.0,1500,1500,1000,1500,0,0,0
1454924528.54322,-0.0005866196006536484,0.012063654139637947,-0.02524559758603573,-0.06,0.04,0.0,1500,1500,1000,1500,0,0,0
1454924528.563227,-0.0005866196006536484,0.012063654139637947,-0.02524559758603573,-0.06,0.04,0.0,1500,1500,1000,1500,0,0,0
1454924528.583232,-0.0005866196006536484,0.012063654139637947,-0.02524559758603573,-0.06,0.04,0.0,1500,1500,1000,1500,0,0,0
1454924528.603239,-0.0005866196006536484,0.012063654139637947,-0.02524559758603573,-0.06,0.04,0.0,1500,1500,1000,1500,0,0,0
1454924528.623246,-0.0005866196006536484,0.012063654139637947,-0.02524559758603573,-0.06,0.04,0.0,1500,1500,1000,1500,0,0,0
1454924528.643253,-0.0005866196006536484,0.012063654139637947,-0.02524559758603573,-0.06,0.04,0.0,1500,1500,1000,1500,0,0,0
1454924528.663259,-0.0005866196006536484,0.012063654139637947,-0.02524559758603573,-0.06,0.04,0.0,1500,1500,1000,1500,0,0,0
1454924528.683265,-0.0005866196006536484,0.012063654139637947,-0.02524559758603573,-0.06,0.04,0.0,1500,1500,1000,1500,0,0,0
1454924528.703268,-0.00012936050188727677,0.012134161777794361,-0.025178728625178337,-0.06,0.04,0.0,1500,1500,1000,1500,0,0,0
1454924528.723274,-0.00012936050188727677,0.012134161777794361,-0.025178728625178337,-0.06,0.04,0.0,1500,1500,1000,1500,0,0,0
1454924528.74328,-0.00012936050188727677,0.012134161777794361,-0.025178728625178337,-0.06,0.04,0.0,1500,1500,1000,1500,0,0,0
1454924528.763288,-0.00012936050188727677,0.012134161777794361,-0.025178728625178337,-0.06,0.04,0.0,1500,1500,1000,1500,0,0,0
1454924528.783294,-0.00012936050188727677,0.012134161777794361,-0.025178728625178337,-0.06,0.04,0.0,1500,1500,1000,1500,0,0,0
1454924528.803301,-0.00012936050188727677,0.012134161777794361,-0.025178728625178337,-0.06,0.04,0.0,1500,1500,1000,1500,0,0,0
1454924528.823307,-0.00012936050188727677,0.012134161777794361,-0.025178728625178337,-0.06,0.04,0.0,1500,1500,1000,1500,0,0,0
1454924528.843314,-0.00012936050188727677,0.012134161777794361,-0.025178728625178337,-0.06,0.04,0.0,1500,1500,1000,1500,0,0,0
1454924528.863321,-0.00012936050188727677,0.012134161777794361,-0.025178728625178337,-0.06,0.04,0.0,1500,1500,1000,1500,0,0,0
1454924528.883328,-0.00012936050188727677,0.012134161777794361,-0.025178728625178337,-0.06,0.04,0.0,1500,1500,1000,1500,0,0,0
1454924528.903333,-0.00012936050188727677,0.012134161777794361,-0.025178728625178337,-0.06,0.04,0.0,1500,1500,1000,1500,0,0,0
1454924528.923337,-0.00012936050188727677,0.012134161777794361,-0.025178728625178337,-0.06,0.04,0.0,1500,1500,1000,1500,0,0,0
1454924528.943343,-0.00012936050188727677,0.012134161777794361,-0.025178728625178337,-0.06,0.04,0.0,1500,1500,1000,1500,0,0,0
1454924528.96335,-0.00012936050188727677,0.012134161777794361,-0.025178728625178337,-0.06,0.04,0.0,1500,1500,1000,1500,0,0,0
1454924528.983356,-0.00012936050188727677,0.012134161777794361,-0.025178728625178337,-0.06,0.04,0.0,1500,1500,1000,1500,0,0,0
1454924529.003362,0.00024281686637550592,0.012187696993350983,-0.024800367653369904,-0.06,0.04,0.0,1500,1500,1000,1500,0,0,0
1454924529.023369,0.00024281686637550592,0.012187696993350983,-0.024800367653369904,-0.06,0.04,0.0,1500,1500,1000,1500,0,0,0
1454924529.043377,0.00024281686637550592,0.012187696993350983,-0.024800367653369904,-0.06,0.04,0.0,1500,1500,1000,1500,0,0,0
1454924529.063381,0.00024281686637550592,0.012187696993350983,-0.024800367653369904,-0.06,0.04,0.0,1500,1500,1000,1500,0,0,0
1454924529.083383,0.00024281686637550592,0.012187696993350983,-0.024800367653369904,-0.06,0.04,0.0,1500,1500,1000,1500,0,0,0
1454924529.103389,0.00024281686637550592,0.012187696993350983,-0.024800367653369904,-0.06,0.04,0.0,1500,1500,1000,1500,0,0,0
1454924529.123393,0.00024281686637550592,0.012187696993350983,-0.024800367653369904,-0.06,0.04,0.0,1500,1500,1000,1500,0,0,0
1454924529.143404,0.00024281686637550592,0.012187696993350983,-0.024800367653369904,-0.06,0.04,0.0,1500,1500,1000,1500,0,0,0
1454924529.163408,0.00024281686637550592,0.012187696993350983,-0.024800367653369904,-0.06,0.04,0.0,1500,1500,1000,1500,0,0,0
1454924529.183414,0.00039019130053929985,0.012512005865573883,-0.024066656827926636,-0.06,0.04,0.0,1500,1500,1000,1500,0,0,0
1454924529.20342,0.00039019130053929985,0.012512005865573883,-0.024066656827926636,-0.06,0.04,0.0,1500,1500,1000,1500,0,0,0
1454924529.223426,0.00039019130053929985,0.012512005865573883,-0.024066656827926636,-0.06,0.04,0.0,1500,1500,1000,1500,0,0,0
1454924529.243431,0.00039019130053929985,0.012512005865573883,-0.024066656827926636,-0.06,0.04,0.0,1500,1500,1000,1500,0,0,0
1454924529.263437,0.00039019130053929985,0.012512005865573883,-0.024066656827926636,-0.06,0.04,0.0,1500,1500,1000,1500,0,0,0
1454924529.283441,0.00039019130053929985,0.012512005865573883,-0.024066656827926636,-0.06,0.04,0.0,1500,1500,1000,1500,0,0,0
1454924529.303448,0.00039019130053929985,0.012512005865573883,-0.024066656827926636,-0.06,0.04,0.0,1500,1500,1000,1500,0,0,0
1454924529.323454,0.00039019130053929985,0.012512005865573883,-0.024066656827926636,-0.06,0.04,0.0,1500,1500,1000,1500,0,0,0
1454924529.343459,0.00039019130053929985,0.012512005865573883,-0.024066656827926636,-0.06,0.04,0.0,1500,1500,1000,1500,0,0,0
1454924529.363465,0.00039019130053929985,0.012512005865573883,-0.024066656827926636,-0.06,0.04,0.0,1500,1500,1000,1500,0,0,0
1454924529.383468,0.00039019130053929985,0.012512005865573883,-0.024066656827926636,-0.06,0.04,0.0,1500,1500,1000,1500,0,0,0
1454924529.403476,0.00039019130053929985,0.012512005865573883,-0.024066656827926636,-0.06,0.04,0.0,1500,1500,1000,1500,0,0,0
1454924529.423481,0.00039019130053929985,0.012512005865573883,-0.024066656827926636,-0.06,0.04,0.0,1500,1500,1000,1500,0,0,0
1454924529.443486,0.00039019130053929985,0.012512005865573883,-0.024066656827926636,-0.06,0.04,0.0,1500,1500,1000,1500,0,0,0
1454924529.463492,0.00039019130053929985,0.012512005865573883,-0.024066656827926636,-0.06,0.04,0.0,1500,1500,1000,1500,0,0,0
1454924529.483498,0.00039019130053929985,0.012512005865573883,-0.024066656827926636,-0.06,0.04,0.0,1500,1500,1000,1500,0,0,0
1454924529.503515,0.0003345588920637965,0.012644410133361816,-0.023380927741527557,-0.06,0.04,0.0,1500,1500,1000,1500,0,0,0
1454924529.523521,0.0003345588920637965,0.012644410133361816,-0.023380927741527557,-0.06,0.04,0.0,1500,1500,1000,1500,0,0,0
1454924529.543527,0.0003345588920637965,0.012644410133361816,-0.023380927741527557,-0.06,0.04,0.0,1500,1500,1000,1500,0,0,0
1454924529.563533,0.0003345588920637965,0.012644410133361816,-0.023380927741527557,-0.06,0.04,0.0,1500,1500,1000,1500,0,0,0
1454924529.583538,0.0003345588920637965,0.012644410133361816,-0.023380927741527557,-0.06,0.04,0.0,1500,1500,1000,1500,0,0,0
1454924529.603545,0.0003345588920637965,0.012644410133361816,-0.023380927741527557,-0.06,0.04,0.0,1500,1500,1000,1500,0,0,0
1454924529.623617,0.0003345588920637965,0.012644410133361816,-0.023380927741527557,-0.06,0.04,0.0,1500,1500,1000,1500,0,0,0
1454924529.643623,0.0003345588920637965,0.012644410133361816,-0.023380927741527557,-0.06,0.04,0.0,1500,1500,1000,1500,0,0,0
1454924529.66363,0.0003345588920637965,0.012644410133361816,-0.023380927741527557,-0.06,0.04,0.0,1500,1500,1000,1500,0,0,0
1454924529.683635,0.00015198254550341517,0.01260130200535059,-0.0225925762206316,-0.06,0.04,0.0,1500,1500,1000,1500,0,0,0
1454924529.703641,0.00015198254550341517,0.01260130200535059,-0.0225925762206316,-0.06,0.04,0.0,1500,1500,1000,1500,0,0,0
1454924529.723648,0.00015198254550341517,0.01260130200535059,-0.0225925762206316,-0.06,0.04,0.0,1500,1500,1000,1500,0,0,0
1454924529.743652,0.00015198254550341517,0.01260130200535059,-0.0225925762206316,-0.06,0.04,0.0,1500,1500,1000,1500,0,0,0
1454924529.763659,0.00015198254550341517,0.01260130200535059,-0.0225925762206316,-0.06,0.04,0.0,1500,1500,1000,1500,0,0,0
1454924529.783664,0.00015198254550341517,0.01260130200535059,-0.0225925762206316,-0.06,0.04,0.0,1500,1500,1000,1500,0,0,0
1454924529.80367,0.00015198254550341517,0.01260130200535059,-0.0225925762206316,-0.06,0.04,0.0,1500,1500,1000,1500,0,0,0
1454924529.823676,0.00015198254550341517,0.01260130200535059,-0.0225925762206316,-0.06,0.04,0.0,1500,1500,1000,1500,0,0,0
1454924529.843679,0.00015198254550341517,0.01260130200535059,-0.0225925762206316,-0.06,0.04,0.0,1500,1500,1000,1500,0,0,0
1454924529.863685,0.00015198254550341517,0.01260130200535059,-0.0225925762206316,-0.06,0.04,0.0,1500,1500,1000,1500,0,0,0
1454924529.883686,0.00015198254550341517,0.01260130200535059,-0.0225925762206316,-0.06,0.04,0.0,1500,1500,1000,1500,0,0,0
1454924529.903842,0.00015198254550341517,0.01260130200535059,-0.0225925762206316,-0.06,0.04,0.0,1500,1500,1000,1500,0,0,0
1454924529.923845,-0.00013687774480786175,0.01231164950877428,-0.02168390341103077,-0.06,0.04,0.0,1500,1500,1000,1500,0,0,0
1454924529.943852,-0.00013687774480786175,0.01231164950877428,-0.02168390341103077,-0.06,0.04,0.0,1500,1500,1000,1500,0,0,0
1454924529.963858,-0.00013687774480786175,0.01231164950877428,-0.02168390341103077,-0.06,0.04,0.0,1500,1500,1000,1500,0,0,0
1454924529.983865,-0.00013687774480786175,0.01231164950877428,-0.02168390341103077,-0.06,0.04,0.0,1500,1500,1000,1500,0,0,0
1454924530.003871,-0.00013687774480786175,0.01231164950877428,-0.02168390341103077,-0.06,0.04,0.0,1500,1500,1000,1500,0,0,0
1454924530.023879,-0.00013687774480786175,0.01231164950877428,-0.02168390341103077,-0.06,0.04,0.0,1500,1500,1000,1500,0,0,0
1454924530.043883,-0.00013687774480786175,0.01231164950877428,-0.02168390341103077,-0.06,0.04,0.0,1500,1500,1000,1500,0,0,0
1454924530.063888,-0.00013687774480786175,0.01231164950877428,-0.02168390341103077,-0.06,0.04,0.0,1500,1500,1000,1500,0,0,0
1454924530.083895,-0.00013687774480786175,0.01231164950877428,-0.02168390341103077,-0.06,0.04,0.0,1500,1500,1000,1500,0,0,0
1454924530.103901,-0.00013687774480786175,0.01231164950877428,-0.02168390341103077,-0.06,0.04,0.0,1500,1500,1000,1500,0,0,0
1454924530.123906,-0.00013687774480786175,0.01231164950877428,-0.02168390341103077,-0.06,0.04,0.0,1500,1500,1000,1500,0,0,0
1454924530.143911,-0.00013687774480786175,0.01231164950877428,-0.02168390341103077,-0.06,0.04,0.0,1500,1500,1000,1500,0,0,0
1454924530.163916,-0.00013687774480786175,0.01231164950877428,-0.02168390341103077,-0.06,0.04,0.0,1500,1500,1000,1500,0,0,0
1454924530.183923,-0.00013687774480786175,0.01231164950877428,-0.02168390341103077,-0.06,0.04,0.0,1500,1500,1000,1500,0,0,0
1454924530.203929,-0.00016901611525099725,0.012121345847845078,-0.02081124298274517,-0.06,0.05,0.0,1500,1500,1000,1500,0,0,0
1454924530.223936,-0.00016901611525099725,0.012121345847845078,-0.02081124298274517,-0.06,0.05,0.0,1500,1500,1000,1500,0,0,0
1454924530.243941,-0.00016901611525099725,0.012121345847845078,-0.02081124298274517,-0.06,0.05,0.0,1500,1500,1000,1500,0,0,0
1454924530.263948,-0.00016901611525099725,0.012121345847845078,-0.02081124298274517,-0.06,0.05,0.0,1500,1500,1000,1500,0,0,0
1454924530.283954,-0.00016901611525099725,0.012121345847845078,-0.02081124298274517,-0.06,0.05,0.0,1500,1500,1000,1500,0,0,0
1454924530.303961,-0.00016901611525099725,0.012121345847845078,-0.02081124298274517,-0.06,0.05,0.0,1500,1500,1000,1500,0,0,0
1454924530.323966,-0.00016901611525099725,0.012121345847845078,-0.02081124298274517,-0.06,0.05,0.0,1500,1500,1000,1500,0,0,0
1454924530.343969,-0.00016901611525099725,0.012121345847845078,-0.02081124298274517,-0.06,0.05,0.0,1500,1500,1000,1500,0,0,0
1454924530.363975,-0.00016901611525099725,0.012121345847845078,-0.02081124298274517,-0.06,0.05,0.0,1500,1500,1000,1500,0,0,0
1454924530.383979,-9.297343058278784e-05,0.011567141860723495,-0.019642597064375877,-0.06,0.04,0.0,1500,1500,1000,1500,0,0,0
1454924530.403985,-9.297343058278784e-05,0.011567141860723495,-0.019642597064375877,-0.06,0.04,0.0,1500,1500,1000,1500,0,0,0
1454924530.423991,-9.297343058278784e-05,0.011567141860723495,-0.019642597064375877,-0.06,0.04,0.0,1500,1500,1000,1500,0,0,0
1454924530.443996,-9.297343058278784e-05,0.011567141860723495,-0.019642597064375877,-0.06,0.04,0.0,1500,1500,1000,1500,0,0,0
1454924530.464002,-9.297343058278784e-05,0.011567141860723495,-0.019642597064375877,-0.06,0.04,0.0,1500,1500,1000,1500,0,0,0
1454924530.484009,-9.297343058278784e-05,0.011567141860723495,-0.019642597064375877,-0.06,0.04,0.0,1500,1500,1000,1500,0,0,0
1454924530.504013,-9.297343058278784e-05,0.011567141860723495,-0.019642597064375877,-0.06,0.04,0.0,1500,1500,1000,1500,0,0,0
1454924530.524019,-9.297343058278784e-05,0.011567141860723495,-0.019642597064375877,-0.06,0.04,0.0,1500,1500,1000,1500,0,0,0
1454924530.544024,-9.297343058278784e-05,0.011567141860723495,-0.019642597064375877,-0.06,0.04,0.0,1500,1500,1000,1500,0,0,0
1454924530.564031,-9.297343058278784e-05,0.011567141860723495,-0.019642597064375877,-0.06,0.04,0.0,1500,1500,1000,1500,0,0,0
1454924530.584037,-9.297343058278784e-05,0.011567141860723495,-0.019642597064375877,-0.06,0.04,0.0,1500,1500,1000,1500,0,0,0
1454924530.604044,-9.297343058278784e-05,0.011567141860723495,-0.019642597064375877,-0.06,0.04,0.0,1500,1500,1000,1500,0,0,0
1454924530.624048,-9.297343058278784e-05,0.011567141860723495,-0.019642597064375877,-0.06,0.04,0.0,1500,1500,1000,1500,0,0,0
1454924530.644055,-9.297343058278784e-05,0.011567141860723495,-0.019642597064375877,-0.06,0.04,0.0,1500,1500,1000,1500,0,0,0
1454924530.664059,-9.297343058278784e-05,0.011567141860723495,-0.019642597064375877,-0.06,0.04,0.0,1500,1500,1000,1500,0,0,0
1454924530.684068,-9.297343058278784e-05,0.011567141860723495,-0.019642597064375877,-0.06,0.04,0.0,1500,1500,1000,1500,0,0,0
1454924530.704074,-9.297343058278784e-05,0.011567141860723495,-0.019642597064375877,-0.06,0.04,0.0,1500,1500,1000,1500,0,0,0
1454924530.724079,-9.297343058278784e-05,0.011567141860723495,-0.019642597064375877,-0.06,0.04,0.0,1500,1500,1000,1500,0,0,0
1454924530.744081,-1.1428782272560056e-05,0.011168251745402813,-0.01838981918990612,-0.06,0.04,0.0,1500,1500,1000,1500,0,0,0
1454924530.764088,-1.1428782272560056e-05,0.011168251745402813,-0.01838981918990612,-0.06,0.04,0.0,1500,1500,1000,1500,0,0,0
1454924530.784093,-1.1428782272560056e-05,0.011168251745402813,-0.01838981918990612,-0.06,0.04,0.0,1500,1500,1000,1500,0,0,0
1454924530.8041,-1.1428782272560056e-05,0.011168251745402813,-0.01838981918990612,-0.06,0.04,0.0,1500,1500,1000,1500,0,0,0
1454924530.824105,-1.1428782272560056e-05,0.011168251745402813,-0.01838981918990612,-0.06,0.04,0.0,1500,1500,1000,1500,0,0,0
1454924530.844112,-1.1428782272560056e-05,0.011168251745402813,-0.01838981918990612,-0.06,0.04,0.0,1500,1500,1000,1500,0,0,0
1454924530.864119,-1.1428782272560056e-05,0.011168251745402813,-0.01838981918990612,-0.06,0.04,0.0,1500,1500,1000,1500,0,0,0
1454924530.884123,-1.1428782272560056e-05,0.011168251745402813,-0.01838981918990612,-0.06,0.04,0.0,1500,1500,1000,1500,0,0,0
1454924530.90413,-1.1428782272560056e-05,0.011168251745402813,-0.01838981918990612,-0.06,0.04,0.0,1500,1500,1000,1500,0,0,0
1454924530.924133,8.642720786156133e-05,0.010773899964988232,-0.017160626128315926,-0.06,0.04,0.0,1500,1500,1000,1500,0,0,0
1454924530.94414,8.642720786156133e-05,0.010773899964988232,-0.017160626128315926,-0.06,0.04,0.0,1500,1500,1000,1500,0,0,0
1454924530.964145,8.642720786156133e-05,0.010773899964988232,-0.017160626128315926,-0.06,0.04,0.0,1500,1500,1000,1500,0,0,0
1454924530.984151,8.642720786156133e-05,0.010773899964988232,-0.017160626128315926,-0.06,0.04,0.0,1500,1500,1000,1500,0,0,0
1454924531.004155,8.642720786156133e-05,0.010773899964988232,-0.017160626128315926,-0.06,0.04,0.0,1500,1500,1000,1500,0,0,0
1454924531.024161,8.642720786156133e-05,0.010773899964988232,-0.017160626128315926,-0.06,0.04,0.0,1500,1500,1000,1500,0,0,0
1454924531.044167,8.642720786156133e-05,0.010773899964988232,-0.017160626128315926,-0.06,0.04,0.0,1500,1500,1000,1500,0,0,0
1454924531.064174,8.642720786156133e-05,0.010773899964988232,-0.017160626128315926,-0.06,0.04,0.0,1500,1500,1000,1500,0,0,0
1454924531.08418,8.642720786156133e-05,0.010773899964988232,-0.017160626128315926,-0.06,0.04,0.0,1500,1500,1000,1500,0,0,0
1454924531.104184,8.642720786156133e-05,0.010773899964988232,-0.017160626128315926,-0.07,0.04,0.0,1500,1500,1000,1500,0,0,0
1454924531.124187,0.00022162660025060177,0.010494040325284004,-0.016216108575463295,-0.07,0.04,0.0,1500,1500,1000,1500,0,0,0
1454924531.144193,0.00022162660025060177,0.010494040325284004,-0.016216108575463295,-0.07,0.04,0.0,1500,1500,1000,1500,0,0,0
1454924531.164199,0.00022162660025060177,0.010494040325284004,-0.016216108575463295,-0.07,0.04,0.0,1500,1500,1000,1500,0,0,0
1454924531.184207,0.00022162660025060177,0.010494040325284004,-0.016216108575463295,-0.07,0.04,0.0,1500,1500,1000,1500,0,0,0
1454924531.204213,0.00022162660025060177,0.010494040325284004,-0.016216108575463295,-0.07,0.04,0.0,1500,1500,1000,1500,0,0,0
1454924531.224218,0.00022162660025060177,0.010494040325284004,-0.016216108575463295,-0.07,0.04,0.0,1500,1500,1000,1500,0,0,0
1454924531.244223,0.00022162660025060177,0.010494040325284004,-0.016216108575463295,-0.07,0.04,0.0,1500,1500,1000,1500,0,0,0
1454924531.264229,0.00022162660025060177,0.010494040325284004,-0.016216108575463295,-0.07,0.04,0.0,1500,1500,1000,1500,0,0,0
1454924531.284232,0.00022162660025060177,0.010494040325284004,-0.016216108575463295,-0.07,0.04,0.0,1500,1500,1000,1500,0,0,0
1454924531.304239,0.00022162660025060177,0.010494040325284004,-0.016216108575463295,-0.07,0.04,0.0,1500,1500,1000,1500,0,0,0
1454924531.324245,0.00022162660025060177,0.010494040325284004,-0.016216108575463295,-0.07,0.04,0.0,1500,1500,1000,1500,0,0,0
1454924531.344251,0.00022162660025060177,0.010494040325284004,-0.016216108575463295,-0.07,0.04,0.0,1500,1500,1000,1500,0,0,0
1454924531.364258,0.00022162660025060177,0.010494040325284004,-0.016216108575463295,-0.07,0.04,0.0,1500,1500,1000,1500,0,0,0
1454924531.384263,0.00022162660025060177,0.010494040325284004,-0.016216108575463295,-0.07,0.04,0.0,1500,1500,1000,1500,0,0,0
1454924531.404267,0.00022722987341694534,0.010176225565373898,-0.015701597556471825,-0.07,0.04,0.0,1500,1500,1000,1500,0,0,0
1454924531.42427,0.00022722987341694534,0.010176225565373898,-0.015701597556471825,-0.07,0.04,0.0,1500,1500,1000,1500,0,0,0
1454924531.444276,0.00022722987341694534,0.010176225565373898,-0.015701597556471825,-0.07,0.04,0.0,1500,1500,1000,1500,0,0,0
1454924531.464281,0.00022722987341694534,0.010176225565373898,-0.015701597556471825,-0.07,0.04,0.0,1500,1500,1000,1500,0,0,0
1454924531.484289,0.00022722987341694534,0.010176225565373898,-0.015701597556471825,-0.07,0.04,0.0,1500,1500,1000,1500,0,0,0
1454924531.504295,0.00022722987341694534,0.010176225565373898,-0.015701597556471825,-0.07,0.04,0.0,1500,1500,1000,1500,0,0,0
1454924531.524301,0.00022722987341694534,0.010176225565373898,-0.015701597556471825,-0.07,0.04,0.0,1500,1500,1000,1500,0,0,0
1454924531.544306,0.00022722987341694534,0.010176225565373898,-0.015701597556471825,-0.07,0.04,0.0,1500,1500,1000,1500,0,0,0
1454924531.564311,0.00022722987341694534,0.010176225565373898,-0.015701597556471825,-0.07,0.04,0.0,1500,1500,1000,1500,0,0,0
1454924531.5844,0.00022722987341694534,0.010176225565373898,-0.015701597556471825,-0.07,0.04,0.0,1500,1500,1000,1500,0,0,0
1454924531.604405,6.69096116325818e-05,0.009863347746431828,-0.01567084901034832,-0.07,0.04,0.0,1500,1500,1000,1500,0,0,0
1454924531.62441,6.69096116325818e-05,0.009863347746431828,-0.01567084901034832,-0.07,0.04,0.0,1500,1500,1000,1500,0,0,0
1454924531.644417,6.69096116325818e-05,0.009863347746431828,-0.01567084901034832,-0.07,0.04,0.0,1500,1500,1000,1500,0,0,0
1454924531.664421,6.69096116325818e-05,0.009863347746431828,-0.01567084901034832,-0.07,0.04,0.0,1500,1500,1000,1500,0,0,0
1454924531.684427,6.69096116325818e-05,0.009863347746431828,-0.01567084901034832,-0.07,0.04,0.0,1500,1500,1000,1500,0,0,0
1454924531.704433,6.69096116325818e-05,0.009863347746431828,-0.01567084901034832,-0.07,0.04,0.0,1500,1500,1000,1500,0,0,0
1454924531.72444,6.69096116325818e-05,0.009863347746431828,-0.01567084901034832,-0.07,0.04,0.0,1500,1500,1000,1500,0,0,0
1454924531.744445,6.69096116325818e-05,0.009863347746431828,-0.01567084901034832,-0.07,0.04,0.0,1500,1500,1000,1500,0,0,0
1454924531.764453,6.69096116325818e-05,0.009863347746431828,-0.01567084901034832,-0.07,0.04,0.0,1500,1500,1000,1500,0,0,0
1454924531.784457,6.69096116325818e-05,0.009863347746431828,-0.01567084901034832,-0.07,0.04,0.0,1500,1500,1000,1500,0,0,0
1454924531.804756,6.69096116325818e-05,0.009863347746431828,-0.01567084901034832,-0.07,0.04,0.0,1500,1500,1000,1500,0,0,0
1454924531.824763,6.69096116325818e-05,0.009863347746431828,-0.01567084901034832,-0.07,0.04,0.0,1500,1500,1000,1500,0,0,0
1454924531.844769,6.69096116325818e-05,0.009863347746431828,-0.01567084901034832,-0.07,0.04,0.0,1500,1500,1000,1500,0,0,0
1454924531.864775,6.69096116325818e-05,0.009863347746431828,-0.01567084901034832,-0.07,0.04,0.0,1500,1500,1000,1500,0,0,0
1454924531.88478,6.69096116325818e-05,0.009863347746431828,-0.01567084901034832,-0.07,0.04,0.0,1500,1500,1000,1500,0,0,0
1454924531.904783,-6.369098264258355e-05,0.009876147843897343,-0.01562365423887968,-0.07,0.04,0.0,1500,1500,1000,1500,0,0,0
1454924531.924789,-6.369098264258355e-05,0.009876147843897343,-0.01562365423887968,-0.07,0.04,0.0,1500,1500,1000,1500,0,0,0
1454924531.944794,-6.369098264258355e-05,0.009876147843897343,-0.01562365423887968,-0.07,0.04,0.0,1500,1500,1000,1500,0,0,0
1454924531.964802,-6.369098264258355e-05,0.009876147843897343,-0.01562365423887968,-0.07,0.04,0.0,1500,1500,1000,1500,0,0,0
1454924531.984808,-6.369098264258355e-05,0.009876147843897343,-0.01562365423887968,-0.07,0.04,0.0,1500,1500,1000,1500,0,0,0
1454924532.004815,-6.369098264258355e-05,0.009876147843897343,-0.01562365423887968,-0.07,0.04,0.0,1500,1500,1000,1500,0,0,0
1454924532.024819,-6.369098264258355e-05,0.009876147843897343,-0.01562365423887968,-0.07,0.04,0.0,1500,1500,1000,1500,0,0,0
1454924532.044827,-6.369098264258355e-05,0.009876147843897343,-0.01562365423887968,-0.07,0.04,0.0,1500,1500,1000,1500,0,0,0
1454924532.064831,-6.369098264258355e-05,0.009876147843897343,-0.01562365423887968,-0.07,0.04,0.0,1500,1500,1000,1500,0,0,0
1454924532.084838,-6.369098264258355e-05,0.009876147843897343,-0.01562365423887968,-0.07,0.04,0.0,1500,1500,1000,1500,0,0,0
1454924532.104843,-6.369098264258355e-05,0.009876147843897343,-0.01562365423887968,-0.07,0.04,0.0,1500,1500,1000,1500,0,0,0
1454924532.124846,-6.369098264258355e-05,0.009876147843897343,-0.01562365423887968,-0.07,0.04,0.0,1500,1500,1000,1500,0,0,0
1454924532.144849,-0.0001989029551623389,0.0099802790209651,-0.015602956525981426,-0.07,0.04,0.0,1500,1500,1000,1500,0,0,0
1454924532.164854,-0.0001989029551623389,0.0099802790209651,-0.015602956525981426,-0.07,0.04,0.0,1500,1500,1000,1500,0,0,0
1454924532.18486,-0.0001989029551623389,0.0099802790209651,-0.015602956525981426,-0.07,0.04,0.0,1500,1500,1000,1500,0,0,0
1454924532.204867,-0.0001989029551623389,0.0099802790209651,-0.015602956525981426,-0.07,0.04,0.0,1500,1500,1000,1500,0,0,0
1454924532.224871,-0.0001989029551623389,0.0099802790209651,-0.015602956525981426,-0.07,0.04,0.0,1500,1500,1000,1500,0,0,0
1454924532.244878,-0.0001989029551623389,0.0099802790209651,-0.015602956525981426,-0.07,0.04,0.0,1500,1500,1000,1500,0,0,0
1454924532.264881,-0.0001989029551623389,0.0099802790209651,-0.015602956525981426,-0.07,0.04,0.0,1500,1500,1000,1500,0,0,0
1454924532.284888,-0.0001989029551623389,0.0099802790209651,-0.015602956525981426,-0.07,0.04,0.0,1500,1500,1000,1500,0,0,0
1454924532.304891,-0.0001989029551623389,0.0099802790209651,-0.015602956525981426,-0.07,0.04,0.0,1500,1500,1000,1500,0,0,0
1454924532.324897,-0.0001369831879856065,0.009965498000383377,-0.01569490320980549,-0.06,0.04,0.0,1500,1500,1000,1500,0,0,0
1454924532.344903,-0.0001369831879856065,0.009965498000383377,-0.01569490320980549,-0.06,0.04,0.0,1500,1500,1000,1500,0,0,0
1454924532.36491,-0.0001369831879856065,0.009965498000383377,-0.01569490320980549,-0.06,0.04,0.0,1500,1500,1000,1500,0,0,0
1454924532.384915,-0.0001369831879856065,0.009965498000383377,-0.01569490320980549,-0.06,0.04,0.0,1500,1500,1000,1500,0,0,0
1454924532.404921,-0.0001369831879856065,0.009965498000383377,-0.01569490320980549,-0.06,0.04,0.0,1500,1500,1000,1500,0,0,0
1454924532.424926,-0.0001369831879856065,0.009965498000383377,-0.01569490320980549,-0.06,0.04,0.0,1500,1500,1000,1500,0,0,0
1454924532.444933,-0.0001369831879856065,0.009965498000383377,-0.01569490320980549,-0.06,0.04,0.0,1500,1500,1000,1500,0,0,0
1454924532.464939,-0.0001369831879856065,0.009965498000383377,-0.01569490320980549,-0.06,0.04,0.0,1500,1500,1000,1500,0,0,0
1454924532.484945,-0.0001369831879856065,0.009965498000383377,-0.01569490320980549,-0.06,0.04,0.0,1500,1500,1000,1500,0,0,0
1454924532.504951,-0.0001369831879856065,0.009965498000383377,-0.01569490320980549,-0.06,0.04,0.0,1500,1500,1000,1500,0,0,0
1454924532.524958,-0.0001369831879856065,0.009965498000383377,-0.01569490320980549,-0.06,0.04,0.0,1500,1500,1000,1500,0,0,0
1454924532.544961,-0.0001369831879856065,0.009965498000383377,-0.01569490320980549,-0.06,0.04,0.0,1500,1500,1000,1500,0,0,0
1454924532.564967,-0.0001369831879856065,0.009965498000383377,-0.01569490320980549,-0.06,0.04,0.0,1500,1500,1000,1500,0,0,0
1454924532.584973,-0.0001369831879856065,0.009965498000383377,-0.01569490320980549,-0.06,0.04,0.0,1500,1500,1000,1500,0,0,0
1454924532.604977,-0.0005529409972950816,0.010148800909519196,-0.015736518427729607,-0.06,0.04,0.0,1500,1500,1000,1500,0,0,0
1454924532.624979,-0.0005529409972950816,0.010148800909519196,-0.015736518427729607,-0.06,0.04,0.0,1500,1500,1000,1500,0,0,0
1454924532.644987,-0.0005529409972950816,0.010148800909519196,-0.015736518427729607,-0.06,0.04,0.0,1500,1500,1000,1500,0,0,0
1454924532.66499,-0.0005529409972950816,0.010148800909519196,-0.015736518427729607,-0.06,0.04,0.0,1500,1500,1000,1500,0,0,0
1454924532.684997,-0.0005529409972950816,0.010148800909519196,-0.015736518427729607,-0.06,0.04,0.0,1500,1500,1000,1500,0,0,0
1454924532.705005,-0.0005529409972950816,0.010148800909519196,-0.015736518427729607,-0.06,0.04,0.0,1500,1500,1000,1500,0,0,0
1454924532.72502,-0.0005529409972950816,0.010148800909519196,-0.015736518427729607,-0.06,0.04,0.0,1500,1500,1000,1500,0,0,0
1454924532.745026,-0.0005529409972950816,0.010148800909519196,-0.015736518427729607,-0.06,0.04,0.0,1500,1500,1000,1500,0,0,0
1454924532.765056,-0.0005529409972950816,0.010148800909519196,-0.015736518427729607,-0.06,0.04,0.0,1500,1500,1000,1500,0,0,0
1454924532.785061,-0.0005529409972950816,0.010148800909519196,-0.015736518427729607,-0.06,0.04,0.0,1500,1500,1000,1500,0,0,0
1454924532.805067,-0.0005529409972950816,0.010148800909519196,-0.015736518427729607,-0.06,0.04,0.0,1500,1500,1000,1500,0,0,0
1454924532.82507,-0.0005529409972950816,0.010148800909519196,-0.015736518427729607,-0.06,0.04,0.0,1500,1500,1000,1500,0,0,0
1454924532.845073,-0.0009435403626412153,0.01027613878250122,-0.015274226665496826,-0.06,0.04,0.0,1500,1500,1000,1500,0,0,0
1454924532.86508,-0.0009435403626412153,0.01027613878250122,-0.015274226665496826,-0.06,0.04,0.0,1500,1500,1000,1500,0,0,0
1454924532.885083,-0.0009435403626412153,0.01027613878250122,-0.015274226665496826,-0.06,0.04,0.0,1500,1500,1000,1500,0,0,0
1454924532.905089,-0.0009435403626412153,0.01027613878250122,-0.015274226665496826,-0.06,0.04,0.0,1500,1500,1000,1500,0,0,0
1454924532.925094,-0.0009435403626412153,0.01027613878250122,-0.015274226665496826,-0.06,0.04,0.0,1500,1500,1000,1500,0,0,0
1454924532.945099,-0.0009435403626412153,0.01027613878250122,-0.015274226665496826,-0.06,0.04,0.0,1500,1500,1000,1500,0,0,0
1454924532.965103,-0.0009435403626412153,0.01027613878250122,-0.015274226665496826,-0.06,0.04,0.0,1500,1500,1000,1500,0,0,0
1454924532.985109,-0.0009435403626412153,0.01027613878250122,-0.015274226665496826,-0.06,0.04,0.0,1500,1500,1000,1500,0,0,0
1454924533.005115,-0.0009435403626412153,0.01027613878250122,-0.015274226665496826,-0.06,0.04,0.0,1500,1500,1000,1500,0,0,0
1454924533.025124,-0.0009435403626412153,0.01027613878250122,-0.015274226665496826,-0.06,0.04,0.0,1500,1500,1000,1500,0,0,0
1454924533.045129,-0.0009435403626412153,0.01027613878250122,-0.015274226665496826,-0.06,0.04,0.0,1500,1500,1000,1500,0,0,0
1454924533.065253,-0.0009435403626412153,0.01027613878250122,-0.015274226665496826,-0.06,0.04,0.0,1500,1500,1000,1500,0,0,0
1454924533.085259,-0.0009435403626412153,0.01027613878250122,-0.015274226665496826,-0.06,0.04,0.0,1500,1500,1000,1500,0,0,0
1454924533.105266,-0.0009435403626412153,0.01027613878250122,-0.015274226665496826,-0.06,0.04,0.0,1500,1500,1000,1500,0,0,0
1454924533.12527,-0.0014107594033703208,0.010156309232115746,-0.014683314599096775,-0.06,0.04,0.0,1500,1500,1000,1500,0,0,0
1454924533.145276,-0.0014107594033703208,0.010156309232115746,-0.014683314599096775,-0.06,0.04,0.0,1500,1500,1000,1500,0,0,0
1454924533.165281,-0.0014107594033703208,0.010156309232115746,-0.014683314599096775,-0.06,0.04,0.0,1500,1500,1000,1500,0,0,0
1454924533.185285,-0.0014107594033703208,0.010156309232115746,-0.014683314599096775,-0.06,0.04,0.0,1500,1500,1000,1500,0,0,0
1454924533.20529,-0.0014107594033703208,0.010156309232115746,-0.014683314599096775,-0.06,0.04,0.0,1500,1500,1000,1500,0,0,0
1454924533.225296,-0.0014107594033703208,0.010156309232115746,-0.014683314599096775,-0.06,0.04,0.0,1500,1500,1000,1500,0,0,0
1454924533.245301,-0.0014107594033703208,0.010156309232115746,-0.014683314599096775,-0.06,0.04,0.0,1500,1500,1000,1500,0,0,0
1454924533.265308,-0.0014107594033703208,0.010156309232115746,-0.014683314599096775,-0.06,0.04,0.0,1500,1500,1000,1500,0,0,0
1454924533.285314,-0.0014107594033703208,0.010156309232115746,-0.014683314599096775,-0.06,0.04,0.0,1500,1500,1000,1500,0,0,0
1454924533.305318,-0.0014107594033703208,0.010156309232115746,-0.014683314599096775,-0.06,0.04,0.0,1500,1500,1000,1500,0,0,0
1454924533.325322,-0.0016734828241169453,0.010121772065758705,-0.014305292628705502,-0.06,0.04,0.0,1500,1500,1000,1500,0,0,0
1454924533.345333,-0.0016734828241169453,0.010121772065758705,-0.014305292628705502,-0.06,0.04,0.0,1500,1500,1000,1500,0,0,0
1454924533.365339,-0.0016734828241169453,0.010121772065758705,-0.014305292628705502,-0.06,0.04,0.0,1500,1500,1000,1500,0,0,0
1454924533.385348,-0.0016734828241169453,0.010121772065758705,-0.014305292628705502,-0.06,0.04,0.0,1500,1500,1000,1500,0,0,0
1454924533.405354,-0.0016734828241169453,0.010121772065758705,-0.014305292628705502,-0.06,0.04,0.0,1500,1500,1000,1500,0,0,0
1454924533.42537,-0.0016734828241169453,0.010121772065758705,-0.014305292628705502,-0.06,0.04,0.0,1500,1500,1000,1500,0,0,0
1454924533.445376,-0.0016734828241169453,0.010121772065758705,-0.014305292628705502,-0.06,0.04,0.0,1500,1500,1000,1500,0,0,0
1454924533.465383,-0.0016734828241169453,0.010121772065758705,-0.014305292628705502,-0.06,0.04,0.0,1500,1500,1000,1500,0,0,0
